%time,field.header.seq,field.header.stamp,field.header.frame_id,field.pose.position.x,field.pose.position.y,field.pose.position.z,field.pose.orientation.x,field.pose.orientation.y,field.pose.orientation.z,field.pose.orientation.w
1992000000,0,1992000000,map,-8.87179794518e-07,1.81477025762e-06,1.58887485213e-06,0.0,0.0,0.0,1.0
2028000000,1,2028000000,map,-1.92448374037e-06,9.19872491068e-06,-0.000117050389235,0.00874319579474,-0.0114118012165,0.0227751875578,-0.999637309254
2060000000,2,2060000000,map,-7.19516083336e-06,-4.44765282737e-06,-0.00258698640391,0.0086921961324,-0.011516085032,0.0228540443113,-0.999634738297
2092000000,3,2092000000,map,5.25749373992e-06,-3.11101248371e-05,-0.00732050929219,0.00867891493604,-0.0115911706305,0.0229267897719,-0.999632293779
2128000000,4,2128000000,map,5.39774373465e-05,-8.70980147738e-05,-0.0131492875516,0.00865924454086,-0.0117488930279,0.023066127253,-0.999627404745
2160000000,5,2160000000,map,9.3623297289e-05,-0.000130727334181,-0.0167451687157,0.00863527483786,-0.0119435996143,0.0231889431696,-0.99962251571
2192000000,6,2192000000,map,0.000170147992321,-0.000189916376257,-0.0197413004935,0.00863080364992,-0.0120588195492,0.0232449563313,-0.999619860459
2228000000,7,2228000000,map,0.000285685411654,-0.000276315229712,-0.0220396425575,0.00859103892153,-0.0121969826809,0.0232896741375,-0.999617458089
2260000000,8,2260000000,map,0.000387386127841,-0.000338723155437,-0.0232175029814,0.00857007037049,-0.0123616390581,0.0232946896125,-0.999615477187
2292000000,9,2292000000,map,0.000533120997716,-0.00041905339458,-0.0229328516871,0.00854761383813,-0.0124532914961,0.0233167324143,-0.999614086341
2332000000,10,2332000000,map,0.000780699308962,-0.000552830111701,-0.0232203174382,0.00850853778266,-0.0126484715759,0.0233320738671,-0.99961155753
2360000000,11,2360000000,map,0.00100090214983,-0.000652269169223,-0.0230877380818,0.00846790196452,-0.0128223546556,0.0233554232212,-0.999609113013
2392000000,12,2392000000,map,0.00130737957079,-0.000755655928515,-0.0208358187228,0.0084854860907,-0.0129079328437,0.0233519250328,-0.999607975048
2428000000,13,2428000000,map,0.0015890034847,-0.000807684496976,-0.0180846825242,0.00848466801379,-0.0130182655552,0.0233983708599,-0.999605446237
2460000000,14,2460000000,map,0.00202500261366,-0.000862238463014,-0.0145606659353,0.00842325939696,-0.0131448924688,0.0234017004609,-0.999604223978
2492000000,15,2492000000,map,0.0024278217461,-0.000899305276107,-0.0122526735067,0.00842513312072,-0.0132215593973,0.0233935239723,-0.999603465335
2524000000,16,2524000000,map,0.00282801222056,-0.000923381827306,-0.01021507103,0.00841766654309,-0.0133808468258,0.023409750509,-0.999600978671
2560000000,17,2560000000,map,0.0034767347388,-0.000929669244215,-0.00628603203222,0.00850415418114,-0.0133788899608,0.0234211723049,-0.999600009293
2592000000,18,2592000000,map,0.00405641412362,-0.00091158907162,-0.00226818840019,0.00866490176745,-0.0132331571892,0.0233936925597,-0.999601273699
2624000000,19,2624000000,map,0.00457185413688,-0.000884712557308,0.000722132564988,0.00889501730415,-0.0131022237238,0.0233166902674,-0.999602748839
2660000000,20,2660000000,map,0.00528680766001,-0.000823528505862,0.00389119423926,0.00891959220955,-0.0131243817709,0.0232518684144,-0.999603676069
2692000000,21,2692000000,map,0.0059489547275,-0.000765679520555,0.00689881714061,0.00900620645279,-0.0130997392,0.0232013343431,-0.999604476859
2728000000,22,2728000000,map,0.00686790328473,-0.000698289135471,0.0109473979101,0.00904709696301,-0.0131541058358,0.0231760040871,-0.999604013244
2760000000,23,2760000000,map,0.00755828572437,-0.000651051930618,0.0134739549831,0.00907622932568,-0.0132281779342,0.0231922306238,-0.999602369517
2792000000,24,2792000000,map,0.00841587316245,-0.00059565709671,0.0167724322528,0.00906732070022,-0.0132649719683,0.0231923570643,-0.999601905902
2828000000,25,2828000000,map,0.00946591887623,-0.000501078262459,0.0214842148125,0.00906324710853,-0.0133923883122,0.0232827199075,-0.999598196979
2860000000,26,2860000000,map,0.0100502390414,-0.00040966423694,0.0241197273135,0.00908548500411,-0.013502507326,0.0234070952575,-0.999593602972
2892000000,27,2892000000,map,0.0108421584591,-0.000313411117531,0.0280390512198,0.00910253241651,-0.0135662027386,0.0234542154341,-0.999591411336
2928000000,28,2928000000,map,0.0119157629088,-0.000197220520931,0.0330464988947,0.00914350787898,-0.0136717165507,0.0236251209048,-0.999585637218
2956000000,29,2956000000,map,0.0127220265567,-0.000121917328215,0.035668130964,0.00917105973483,-0.0137666328999,0.0237687995114,-0.999580706037
2992000000,30,2992000000,map,0.0137574886903,-4.88931837026e-05,0.0383692570031,0.00918507685469,-0.0138304267649,0.0238442845171,-0.999577882198
3028000000,31,3028000000,map,0.0146930105984,2.94922647299e-05,0.0400724895298,0.00922141830409,-0.0139280675128,0.0239654145597,-0.999573246045
3064000000,32,3064000000,map,0.0157682746649,0.000152549648192,0.0422142408788,0.00927100868117,-0.0140177250548,0.0240812340994,-0.999568778479
3092000000,33,3092000000,map,0.0166762713343,0.000256761530181,0.0433225482702,0.00930166639756,-0.0140760077255,0.0241751372779,-0.999565406731
3128000000,34,3128000000,map,0.0178973302245,0.000403097976232,0.0449009016156,0.00930670294596,-0.0142094578188,0.0243328086382,-0.999559632612
3160000000,35,3160000000,map,0.0188125204295,0.000502070528455,0.0455049984157,0.00931654868026,-0.014299270942,0.0244705023923,-0.999554870019
3192000000,36,3192000000,map,0.0200406610966,0.000605744076893,0.0464380420744,0.00932066590052,-0.0143482640192,0.0245450180204,-0.999552341208
3228000000,37,3228000000,map,0.0211351290345,0.000708895619027,0.046794552356,0.00933256744614,-0.014460611383,0.0246705734822,-0.99954749432
3260000000,38,3260000000,map,0.0224953554571,0.000862564484123,0.0473186597228,0.00935513889452,-0.0145495025438,0.0248032517613,-0.999542689579
3292000000,39,3292000000,map,0.0234872382134,0.000975431350525,0.0480304174125,0.00938469042077,-0.0146368189601,0.0248964805902,-0.999538812069
3328000000,40,3328000000,map,0.0243473220617,0.00107449444477,0.0479355305433,0.00942797737446,-0.0147342550653,0.0250436152383,-0.999533375126
3360000000,41,3360000000,map,0.0258438419551,0.00122659362387,0.0485943444073,0.00945630993483,-0.0148341595599,0.0252110225206,-0.999527390273
3392000000,42,3392000000,map,0.0272462721914,0.00136484589893,0.0501042641699,0.00946496452675,-0.0148778092069,0.0252978450285,-0.999524439994
3428000000,43,3428000000,map,0.0291026495397,0.00153707433492,0.0519806072116,0.00950569731557,-0.0150175202475,0.0254634399963,-0.999517738645
3460000000,44,3460000000,map,0.0302260406315,0.00164005986881,0.0517955683172,0.00951558387963,-0.0151613248007,0.0256109118193,-0.999511711646
3492000000,45,3492000000,map,0.0312745757401,0.00175375095569,0.0524261631072,0.00950389076335,-0.015253597423,0.0256936039361,-0.999508339898
3528000000,46,3528000000,map,0.0321730300784,0.00186073873192,0.0527188852429,0.00951356148945,-0.0153912668109,0.0258232897889,-0.999502818661
3560000000,47,3560000000,map,0.0338084623218,0.00201885658316,0.0534937866032,0.00954382589013,-0.0154896872754,0.0259418067269,-0.999497929626
3592000000,48,3592000000,map,0.035377830267,0.00215451908298,0.0542434863746,0.00955449068916,-0.0155365423879,0.0260006858743,-0.999495527256
3628000000,49,3628000000,map,0.0367649719119,0.00227868976071,0.0541555769742,0.00958170108969,-0.0156594011099,0.0261064744641,-0.999490638221
3656000000,50,3656000000,map,0.0390626192093,0.00248991092667,0.0552004463971,0.0096176151437,-0.0157663991166,0.0262313977231,-0.999485327719
3692000000,51,3692000000,map,0.0401882603765,0.00261889677495,0.055970095098,0.00963491971774,-0.0158403213962,0.0263252166078,-0.999481534502
3728000000,52,3728000000,map,0.0411509349942,0.00273804273456,0.0552470237017,0.00964631056209,-0.0159329252664,0.0264519100345,-0.999476561174
3760000000,53,3760000000,map,0.0429656729102,0.00292545557022,0.0545330345631,0.00963006723253,-0.0160496519511,0.0266414865591,-0.999469817678
3792000000,54,3792000000,map,0.0447289310396,0.00309436488897,0.0542446412146,0.00964738530673,-0.0161286341574,0.0267490453165,-0.9994655187
3828000000,55,3828000000,map,0.0462719127536,0.00323843257502,0.0536707825959,0.00966556903768,-0.0162379341065,0.0268944940907,-0.999459660288
3860000000,56,3860000000,map,0.0488503165543,0.00347213540226,0.053432919085,0.00968632273858,-0.0163342353748,0.0270857986361,-0.999452790352
3892000000,57,3892000000,map,0.0503828972578,0.00362996570766,0.0543670728803,0.00969510212469,-0.0164205498156,0.0271847172895,-0.99944853352
3928000000,58,3928000000,map,0.0519623570144,0.00381426163949,0.0566515661776,0.00976646628811,-0.016507707852,0.0273504808447,-0.999441916465
3960000000,59,3960000000,map,0.0531911477447,0.0039398544468,0.0574480332434,0.00977734280921,-0.0166170894606,0.0275341146637,-0.999434962235
3988000000,60,3988000000,map,0.0550836957991,0.00411437917501,0.0595274083316,0.00978848669937,-0.0166587239615,0.0276193777382,-0.999431801221
4028000000,61,4028000000,map,0.0567311793566,0.00426251906902,0.061361707747,0.00982686370985,-0.0167553775511,0.0278082799132,-0.999424551963
4060000000,62,4060000000,map,0.0595697052777,0.00451616151258,0.0642805024981,0.00982439515576,-0.0168487937359,0.0279405367239,-0.999419325754
4088000000,63,4088000000,map,0.061241876334,0.00467668892816,0.067139916122,0.00984480443788,-0.0168996231645,0.0280138722403,-0.999416206887
4124000000,64,4124000000,map,0.0627050697803,0.0048257233575,0.070133626461,0.00982760325533,-0.0170164990096,0.0281784556837,-0.999409758419
4160000000,65,4160000000,map,0.0639209002256,0.00495734577999,0.0710462406278,0.0098152650947,-0.0171044802266,0.0283298050167,-0.999404152888
4192000000,66,4192000000,map,0.0662701949477,0.00520105659962,0.0721226483583,0.00981277447937,-0.017152839784,0.0283936153454,-0.99940145549
4228000000,67,4228000000,map,0.0690643042326,0.00548024754971,0.0739873424172,0.00987286897063,-0.0172275203776,0.0285445432099,-0.999395259903
4260000000,68,4260000000,map,0.0711571350694,0.00569668505341,0.0756661891937,0.00988895490805,-0.0173329200968,0.0287440242439,-0.999387631324
4292000000,69,4292000000,map,0.073434703052,0.00594292581081,0.0782944560051,0.00990068819555,-0.0173697715889,0.028821068683,-0.999384681044
4324000000,70,4324000000,map,0.0749822035432,0.00616874266416,0.0815155357122,0.00990644848436,-0.0174349022993,0.0289899089581,-0.999378611898
4360000000,71,4360000000,map,0.0762071013451,0.00635413872078,0.0832957103848,0.00991772309561,-0.0175110586911,0.0292006010538,-0.999370983319
4392000000,72,4392000000,map,0.0783037021756,0.0066365567036,0.085533939302,0.00993331611247,-0.0175565127501,0.0293003204974,-0.999367105808
4428000000,73,4428000000,map,0.0811368450522,0.00703660398722,0.0882913991809,0.0100517237321,-0.0175548044857,0.0294861038056,-0.9993605309
4460000000,74,4460000000,map,0.0832301676273,0.00736089842394,0.0897051244974,0.010368236357,-0.0173459928638,0.0296705384147,-0.999355473278
4492000000,75,4492000000,map,0.0861667469144,0.007792243734,0.091554954648,0.0105925580191,-0.0171806267402,0.029774219662,-0.999352860174
4524000000,76,4524000000,map,0.0867108479142,0.00800460018218,0.0919940620661,0.0108675306442,-0.0169401144321,0.0299054228015,-0.999350120629
4560000000,77,4560000000,map,0.0883966088295,0.00839338079095,0.0934863463044,0.0108989106193,-0.0169623004673,0.0301393378107,-0.999342365608
4592000000,78,4592000000,map,0.0903408899903,0.00876301154494,0.0944447219372,0.0109260410067,-0.016970828948,0.0302138955857,-0.999339626063
4628000000,79,4628000000,map,0.09195291996,0.0090779196471,0.094870865345,0.0109237163446,-0.0170147551837,0.0303655820935,-0.999334357707
4660000000,80,4660000000,map,0.0949625894427,0.00959020480514,0.0964307710528,0.0109030459495,-0.0170852984714,0.0305087549379,-0.999329005057
4692000000,81,4692000000,map,0.097888238728,0.0100566502661,0.0982185080647,0.0109017598121,-0.0171198437407,0.0305735767909,-0.999326391953
4728000000,82,4728000000,map,0.0988063365221,0.0103221666068,0.0990377515554,0.0109258658338,-0.0171896698734,0.0307440186463,-0.999319732751
4756000000,83,4756000000,map,0.099990464747,0.0106805339456,0.0999704152346,0.0109912069492,-0.0171642655312,0.0308621141158,-0.999315855241
4788000000,84,4788000000,map,0.101649209857,0.0110390437767,0.101137675345,0.0110122734587,-0.0171437311256,0.0309297598077,-0.999313874339
4828000000,85,4828000000,map,0.102973088622,0.0113385440782,0.101839326322,0.011041844412,-0.0171610011261,0.0310771894838,-0.999308732423
4860000000,86,4860000000,map,0.105704195797,0.0118647404015,0.103772334754,0.011040818729,-0.0171965503464,0.0312317841241,-0.999303253333
4888000000,87,4888000000,map,0.108481094241,0.012359213084,0.105350151658,0.0110458944608,-0.0172163201818,0.0312745210285,-0.999301567459
4928000000,88,4928000000,map,0.1103342399,0.0128114745021,0.106525488198,0.0110500646939,-0.0172921525698,0.0314015516299,-0.999296172662
4960000000,89,4960000000,map,0.110433369875,0.0130086233839,0.107150055468,0.011075970847,-0.0173056431833,0.031531996126,-0.999291578656
4992000000,90,4992000000,map,0.111652165651,0.0133454594761,0.108635164797,0.0110956014002,-0.0173189872706,0.0316014119855,-0.999288923405
5028000000,91,5028000000,map,0.0,0.0,0.108867488801,0.0111043514811,-0.0173756201227,0.0317460178228,-0.99928323358
5060000000,92,5060000000,map,0.0,0.0,0.109294071794,0.0111277551651,-0.0174279016419,0.0319122871401,-0.999276785112
5092000000,93,5092000000,map,0.0,0.0,0.109510734677,0.011113509201,-0.0174465835618,0.0320082555142,-0.999273539805
5124000000,94,5124000000,map,0.0,0.0,0.109325423837,0.011109313614,-0.0175011762429,0.0321194810474,-0.999269114386
5160000000,95,5160000000,map,0.0,0.0,0.109970100224,0.0111046442041,-0.0175017389692,0.032289880756,-0.999263593149
5192000000,96,5192000000,map,0.0,0.0,0.111107677221,0.0111178849,-0.0175242071908,0.0323912017798,-0.999259799932
5228000000,97,5228000000,map,0.0,0.0,0.111089624465,0.0111066267524,-0.0175452776516,0.0325714638509,-0.999253688639
5260000000,98,5260000000,map,0.0,0.0,0.111621104181,0.0111063742006,-0.0175594254925,0.032715816807,-0.999248757458
5292000000,99,5292000000,map,0.0,0.0,0.112450160086,0.0111277314575,-0.0175706740912,0.0327843054358,-0.999246102206
5328000000,100,5328000000,map,0.0,0.0,0.112860292196,0.0111469915794,-0.0175805506125,0.0329109145688,-0.999241550347
5360000000,101,5360000000,map,0.0,0.0,0.114011511207,0.0111386998455,-0.0175712486713,0.0330625589297,-0.999236745606
5392000000,102,5392000000,map,0.0646210461855,-0.00192279671319,0.111072860658,0.0111299412036,-0.0175491479176,0.0331242619159,-0.999235228319
5428000000,103,5428000000,map,0.0600437782705,-0.00210931082256,0.106213986874,0.0111428203585,-0.0175367534514,0.0332657910332,-0.999230592166
5460000000,104,5460000000,map,0.054164994508,-0.00224103406072,0.0988450497389,0.0111730343806,-0.0175208087718,0.0333495368212,-0.999227768327
5492000000,105,5492000000,map,0.0499393008649,-0.00225719064474,0.0929399803281,0.0111842447837,-0.0175156780516,0.0334033583468,-0.999225871719
5528000000,106,5528000000,map,0.0455357134342,-0.00232010986656,0.0858929231763,0.0112057041151,-0.0174765749958,0.0334991581334,-0.999223132174
5560000000,107,5560000000,map,0.0401890724897,-0.00227218819782,0.0762854069471,0.0112323577162,-0.0175122118025,0.0335778462996,-0.999219549692
5588000000,108,5588000000,map,0.0367618612945,-0.00191601098049,0.0698867067695,0.0112360663096,-0.0175179467374,0.0336296026296,-0.999217695231
5632000000,109,5632000000,map,0.032706681639,-0.0013165686978,0.0620205178857,0.0112773718675,-0.0175445239474,0.0337245173324,-0.999213564839
5660000000,110,5660000000,map,0.0300842989236,-0.000868790026288,0.0570780672133,0.0112512078942,-0.0176197468523,0.0337939753388,-0.999210193091
5692000000,111,5692000000,map,0.0281974822283,-0.000304333108943,0.0530236437917,0.0112521799059,-0.0176560379231,0.0338405476064,-0.999207959309
5728000000,112,5728000000,map,0.0264686457813,0.000189040263649,0.0491117835045,0.0112489026591,-0.0176890260638,0.0339355887498,-0.999204208239
5760000000,113,5760000000,map,0.0249959919602,0.000936681870371,0.0446294508874,0.0112796721635,-0.0177416941487,0.0340500174435,-0.999199024177
5792000000,114,5792000000,map,0.0241555925459,0.0013136069756,0.0417706482112,0.0113148792699,-0.0177806839348,0.0341196861841,-0.999195525988
5828000000,115,5828000000,map,0.0231797620654,0.00164444418624,0.0380438826978,0.0112993290585,-0.0178298646972,0.0342434714781,-0.999190594807
5860000000,116,5860000000,map,0.0226991549134,0.00189281348139,0.0356972850859,0.0113033046917,-0.0178733727572,0.0343706706669,-0.999185452891
5892000000,117,5892000000,map,0.0228806473315,0.0022983646486,0.0338479429483,0.0113012990944,-0.0179055554981,0.0344446383861,-0.999182291878
5928000000,118,5928000000,map,0.0230504050851,0.00264703668654,0.0320213995874,0.0112982842776,-0.0179751359937,0.0345303229291,-0.99917811934
5956000000,119,5956000000,map,0.0239944737405,0.00324009964243,0.0302013438195,0.0113188654399,-0.0180120642063,0.0346265441842,-0.999173946802
5992000000,120,5992000000,map,0.0245773140341,0.00352255953476,0.02893566899,0.0113155305705,-0.0180549433563,0.0346675530678,-0.999171797312
6028000000,121,6028000000,map,0.0247411951423,0.00361143914051,0.0276201367378,0.0112722546474,-0.0180725386777,0.0347467469962,-0.999169142061
6056000000,122,6056000000,map,0.0256062969565,0.00385948899202,0.0263773854822,0.0112238782971,-0.018064867622,0.0348544321941,-0.999166065341
6088000000,123,6088000000,map,0.0267307534814,0.00414851587266,0.025616440922,0.0112076013818,-0.0181023523047,0.0349261661303,-0.999163115062
6128000000,124,6128000000,map,0.0277094710618,0.0043739778921,0.0246822573245,0.0111846606546,-0.0181130362015,0.0350166975609,-0.999159996195
6152000000,125,6152000000,map,0.0296405944973,0.00482640601695,0.0240745432675,0.011168018247,-0.0181416377773,0.0350942477622,-0.999156877328
6192000000,126,6192000000,map,0.0305766202509,0.00483900401741,0.0236046854407,0.0111502744238,-0.0181459262191,0.0351420001415,-0.999155402188
6228000000,127,6228000000,map,0.0312823578715,0.00456760032102,0.0224069785327,0.0110799906027,-0.0180926697248,0.0352015536385,-0.999155022867
6260000000,128,6260000000,map,0.0318716242909,0.00434560002759,0.0215558316559,0.011014974479,-0.0180220783633,0.0352263359854,-0.999156118685
6288000000,129,6288000000,map,0.0331189110875,0.00425783963874,0.0213390123099,0.0109817337864,-0.0179588633589,0.0352831499372,-0.999155612923
6328000000,130,6328000000,map,0.0341484062374,0.00410242984071,0.0211665816605,0.0109253406446,-0.0179140645517,0.0353014838163,-0.999156413713
6356000000,131,6356000000,map,0.036143373698,0.0040220040828,0.0210508666933,0.0108555922201,-0.0178608653507,0.0353584663555,-0.999156160832
6392000000,132,6392000000,map,0.0375390574336,0.00400289800018,0.0211379304528,0.0107907301959,-0.0178387099378,0.0354073988466,-0.999155528629
6428000000,133,6428000000,map,0.0378946699202,0.00381424184889,0.021489135921,0.0107163940211,-0.0177084389681,0.0354890372922,-0.999155739363
6460000000,134,6460000000,map,0.0381845980883,0.00363727100194,0.0216640606523,0.0106451839571,-0.0176074080332,0.0355890096168,-0.999154727839
6492000000,135,6492000000,map,0.039138417691,0.00356336752884,0.0222360678017,0.0105890828797,-0.0175551258554,0.0356301870878,-0.999154769986
6528000000,136,6528000000,map,0.0398345440626,0.00341620435938,0.0225949436426,0.0105505109401,-0.0174517630143,0.0357142700506,-0.999153969196
6560000000,137,6560000000,map,0.0413811579347,0.00330267380923,0.0231637526304,0.0104629472403,-0.0173418134111,0.0357757201557,-0.999154643545
6592000000,138,6592000000,map,0.0423992201686,0.00317261228338,0.0238366946578,0.0104472202096,-0.0172905717337,0.0358268021361,-0.999153800608
6628000000,139,6628000000,map,0.0421241186559,0.00267414562404,0.0242816880345,0.0103946459674,-0.0171349431784,0.0358918768702,-0.999154727839
6656000000,140,6656000000,map,0.0419364273548,0.00229510688223,0.0246028993279,0.0103274513785,-0.0169699139004,0.0359738103437,-0.999155317895
6692000000,141,6692000000,map,0.0424145199358,0.00199005124159,0.0254229418933,0.0103096960308,-0.0168865194459,0.0360317201136,-0.999154812133
6728000000,142,6728000000,map,0.0426251925528,0.001646001474,0.0259982440621,0.0102889670253,-0.0167722310222,0.0361400375143,-0.999153041965
6760000000,143,6760000000,map,0.0435128286481,0.00127406150568,0.0267848540097,0.0102527783582,-0.016682901106,0.0362310325602,-0.999151651119
6792000000,144,6792000000,map,0.0446267724037,0.00103882094845,0.0276256594807,0.0102447059196,-0.0166486212302,0.036256952872,-0.999151356091
6824000000,145,6824000000,map,0.0435177907348,0.000489283003844,0.0269258525223,0.0101922367152,-0.0164752281076,0.0363286868082,-0.999152114734
6860000000,146,6860000000,map,0.0426892749965,-0.000183123222087,0.0265494491905,0.0101455673123,-0.0163105363336,0.0363925392837,-0.999152915524
6892000000,147,6892000000,map,0.0425217449665,-0.000670956738759,0.0267229918391,0.0101418906583,-0.016225190941,0.0364230114552,-0.999153294846
6928000000,148,6928000000,map,0.0422971509397,-0.00131631409749,0.026503674686,0.0101044342931,-0.0160487204399,0.0364474144805,-0.999155612923
6956000000,149,6956000000,map,0.0421359427273,-0.00179227197077,0.0264876950532,0.0100464830349,-0.0158986006095,0.0364493532355,-0.999158563202
6988000000,150,6988000000,map,0.0425882041454,-0.00222442764789,0.0266780257225,0.0100405722687,-0.0158475024948,0.0364768751276,-0.999158436762
7024000000,151,7024000000,map,0.0411590151489,-0.00265350961126,0.0260246992111,0.0100097378977,-0.0156793615939,0.036490952175,-0.999160881279
7060000000,152,7060000000,map,0.0398671999574,-0.00318583101034,0.0255326740444,0.00997105367623,-0.0155099378483,0.0364769594213,-0.999164421614
7092000000,153,7092000000,map,0.039331857115,-0.00357007351704,0.0251827482134,0.00991852470892,-0.0154260559063,0.0364710167156,-0.99916648681
7128000000,154,7128000000,map,0.038679856807,-0.00406616507098,0.0246431939304,0.0098749591909,-0.0152511005515,0.0364735033797,-0.999169479236
7160000000,155,7160000000,map,0.0382374450564,-0.00442319735885,0.0241438560188,0.00985942610159,-0.0151594910835,0.0364467401309,-0.9991719659
7192000000,156,7192000000,map,0.0383694767952,-0.00475762225688,0.0242427811027,0.00985586107089,-0.0151241018895,0.036432241615,-0.999173061718
7228000000,157,7228000000,map,0.0364622101188,-0.00502690859139,0.0229465030134,0.00986488543556,-0.0150047765881,0.0363959953253,-0.999176096291
7260000000,158,7260000000,map,0.0345326215029,-0.00535985035822,0.0216606073081,0.00985402982325,-0.0148808755548,0.03634377538,-0.999179931654
7292000000,159,7292000000,map,0.0335121043026,-0.00557289132848,0.021090330556,0.00982778270871,-0.0148302152075,0.0363014177972,-0.999182502612
7328000000,160,7328000000,map,0.0322567932308,-0.00584078533575,0.0203016884625,0.00987476393245,-0.0147093057773,0.0362208751697,-0.999186759444
7356000000,161,7356000000,map,0.0313877761364,-0.00603017397225,0.0195612367243,0.00985796298033,-0.0145826441255,0.0360837714715,-0.999193797967
7392000000,162,7392000000,map,0.03104057163,-0.00620225118473,0.0193726457655,0.00986331365445,-0.0145357155853,0.0360404445112,-0.999195989604
7428000000,163,7428000000,map,0.0294368974864,-0.00632887007669,0.0185312051326,0.00985217997173,-0.0144507070382,0.0359023714355,-0.999202227337
7460000000,164,7460000000,map,0.0271216798574,-0.0064549590461,0.0178623571992,0.00986558678546,-0.0142907925107,0.0358298788561,-0.999207032078
7492000000,165,7492000000,map,0.0258051715791,-0.0065373647958,0.0176195781678,0.00986326261726,-0.0142150817889,0.0358026519919,-0.99920913942
7524000000,166,7524000000,map,0.0241791792214,-0.00662595406175,0.0174249242991,0.0098775385451,-0.0141201605006,0.0357655627653,-0.999211668231
7560000000,167,7560000000,map,0.0230666976422,-0.00667922338471,0.0169538594782,0.00987782237778,-0.0140116251217,0.0356783609357,-0.999216262238
7592000000,168,7592000000,map,0.0224208496511,-0.00673773651943,0.0170985385776,0.00987989975643,-0.013983861873,0.0356433790514,-0.999217948112
7624000000,169,7624000000,map,0.0207970757037,-0.00662137847394,0.0170060601085,0.00984767947856,-0.0139051411089,0.0355564301029,-0.999222457824
7660000000,170,7660000000,map,0.0190516840667,-0.00637428555638,0.0166517496109,0.00984990272482,-0.0137805866348,0.0354999954728,-0.9992261246
7692000000,171,7692000000,map,0.0177845899016,-0.00612324709073,0.0166888311505,0.00984353756288,-0.0137367022167,0.0354696918887,-0.999227852621
7724000000,172,7724000000,map,0.0162864290178,-0.00575647177175,0.016553984955,0.00987429817685,-0.0136440463215,0.0353722062281,-0.999232362334
7760000000,173,7760000000,map,0.0152864139527,-0.00545535981655,0.0167227834463,0.00987800413607,-0.0135870219647,0.0352761535603,-0.999236450578
7792000000,174,7792000000,map,0.0146868843585,-0.00513171730563,0.0170427691191,0.00989292510826,-0.0135562564117,0.0352567238632,-0.999237419956
7828000000,175,7828000000,map,0.0132439099252,-0.00471356138587,0.0171292778105,0.00992529586355,-0.0135048616226,0.0351881087938,-0.999240201648
7856000000,176,7856000000,map,0.0117145143449,-0.004409737885,0.0168641190976,0.00994763221153,-0.0134116184704,0.0350952171397,-0.999244500626
7888000000,177,7888000000,map,0.0106025915593,-0.00408086180687,0.0167680718005,0.00995255318537,-0.0133616925649,0.0350608674582,-0.999246312941
7928000000,178,7928000000,map,0.00950357317924,-0.00375263532624,0.0164911113679,0.00995697843983,-0.0132869979772,0.034966037049,-0.999250611919
7960000000,179,7960000000,map,0.00844870414585,-0.00330733717419,0.0167958866805,0.00998787092733,-0.013213600393,0.0348881918198,-0.99925394152
7992000000,180,7992000000,map,0.00794856715947,-0.00295605324209,0.0174199361354,0.00997097102889,-0.0132079332882,0.0348481101669,-0.999255585247
8028000000,181,8028000000,map,0.0071582053788,-0.00265664677136,0.017902392894,0.00998505894228,-0.0131440567759,0.0348194503099,-0.999257355415
8060000000,182,8060000000,map,0.00592322368175,-0.00230786227621,0.0188449341804,0.0100156646337,-0.0130719575121,0.0347773877551,-0.999259462757
8092000000,183,8092000000,map,0.00504183396697,-0.00203803624026,0.0190916471183,0.0100029331573,-0.0130296926195,0.0347268115369,-0.999261907275
8128000000,184,8128000000,map,0.00427937600762,-0.0016450767871,0.0195956639946,0.0100296122771,-0.0130050760612,0.0347044737071,-0.999262665918
8160000000,185,8160000000,map,0.00383265665732,-0.0013272871729,0.0199375543743,0.00997672012245,-0.0129272155208,0.0346832738423,-0.999264983995
8192000000,186,8192000000,map,0.00371124618687,-0.000980998040177,0.0209466759115,0.00996982351509,-0.0129186574057,0.0346450466507,-0.999266459134
8232000000,187,8232000000,map,0.0030529894866,-0.000727420498151,0.0223912037909,0.00993854775468,-0.0129025469374,0.0345915201531,-0.999268819358
8260000000,188,8260000000,map,0.00221375701949,-0.000682016077917,0.0228681247681,0.00993095539505,-0.0128486207033,0.0345554845977,-0.999270884553
8292000000,189,8292000000,map,0.00171432830393,-0.000586420123,0.023777384311,0.00992786698594,-0.0128223064172,0.0345412389629,-0.99927172749
8328000000,190,8328000000,map,0.00123535108287,-0.000496344291605,0.0244636479765,0.00991360027772,-0.0127661694492,0.0344857737102,-0.999274509182
8360000000,191,8360000000,map,0.000960401608609,-0.000365276442608,0.0257712658495,0.00989071766707,-0.0127204844057,0.034465248195,-0.999275984322
8392000000,192,8392000000,map,0.00100149086211,-0.000246710289503,0.0270211752504,0.00988294321988,-0.0127040665618,0.0344443012113,-0.999277037993
8428000000,193,8428000000,map,0.000849998788908,-0.000140106771141,0.0281591061503,0.0098491803015,-0.0126818347578,0.034382893253,-0.999279777538
8460000000,194,8460000000,map,8.28661723062e-05,-0.00017824821407,0.0284529738128,0.00983844668456,-0.0126759809557,0.0343168069945,-0.999282222056
8492000000,195,8492000000,map,-0.00037188778515,-0.000182276591659,0.0291853975505,0.00981657576291,-0.0126749450651,0.0342575906724,-0.999284455839
8528000000,196,8528000000,map,-0.000792219187133,-0.000188346020877,0.0296662021428,0.00980809008765,-0.0126262901505,0.0341665534796,-0.999288249055
8556000000,197,8556000000,map,-0.0010160994716,-0.00017714058049,0.0299628283828,0.00980456983798,-0.0125933902547,0.034085210062,-0.999291536509
8592000000,198,8592000000,map,-0.000930317910388,-0.000152487438754,0.0303550753742,0.00979705963178,-0.012573794769,0.0340213575865,-0.999294023173
8628000000,199,8628000000,map,-0.000827243900858,-0.000142797463923,0.0309109427035,0.00980147410257,-0.0125276891625,0.0339183928356,-0.999298027124
8656000000,200,8656000000,map,-0.00136649410706,-0.000357218639692,0.0310237146914,0.00978657650871,-0.0125141745121,0.0338025732959,-0.999302326102
8688000000,201,8688000000,map,-0.00176094751805,-0.000560311134905,0.0308293253183,0.00977053724563,-0.0124691825043,0.0337546523291,-0.999304644179
8728000000,202,8728000000,map,-0.00213232706301,-0.000748632417526,0.03005056642,0.00973912590737,-0.0124437219389,0.0336806424631,-0.999307763046
8760000000,203,8760000000,map,-0.00228493451141,-0.000963019032497,0.029418874532,0.00975393122268,-0.0124210009186,0.0336071805062,-0.999310334004
8792000000,204,8792000000,map,-0.00215726951137,-0.00110680493526,0.0293614901602,0.00973988232805,-0.0123953975313,0.0335686582866,-0.999312104171
8828000000,205,8828000000,map,-0.00202563079074,-0.00124572601635,0.0290675833821,0.00973229877645,-0.0123609422357,0.0334969243505,-0.999315054451
8860000000,206,8860000000,map,-0.00220677955076,-0.00155188154895,0.0284088850021,0.00973422946431,-0.0123191366779,0.033406350773,-0.999318552639
8892000000,207,8892000000,map,-0.00226105726324,-0.00178762769792,0.0281907450408,0.00974020279227,-0.0122951864019,0.0333644568056,-0.999320154219
8928000000,208,8928000000,map,-0.00230732606724,-0.00201423722319,0.0277263578027,0.00973693056693,-0.0122425047346,0.0332900254711,-0.99932335738
8960000000,209,8960000000,map,-0.00206842971966,-0.00230683851987,0.0276935994625,0.00975446991208,-0.0122179835006,0.033190179587,-0.999326771274
8992000000,210,8992000000,map,-0.00167085090652,-0.00251607387327,0.0280299074948,0.00975708556855,-0.0122365742944,0.0331314268802,-0.999328457148
9028000000,211,9028000000,map,-0.00129088805988,-0.0027014228981,0.0281118992716,0.00974845205005,-0.0122253197687,0.0329994650975,-0.999333051155
9056000000,212,9056000000,map,-0.00183820107486,-0.00303902104497,0.0281221084297,0.00973687977669,-0.0121906714373,0.0328946458852,-0.999337055106
9092000000,213,9092000000,map,-0.00231872918084,-0.00329407816753,0.028138609603,0.00971505380069,-0.0121739962671,0.032862150665,-0.999338614539
9128000000,214,9128000000,map,-0.00277358829044,-0.00353501387872,0.0277165062726,0.00968244061871,-0.0121427253635,0.0327935355957,-0.999341480525
9160000000,215,9160000000,map,-0.00308317597955,-0.00383992609568,0.0271744187921,0.00969730125176,-0.0120975203166,0.0327060387382,-0.999344767979
9192000000,216,9192000000,map,-0.00310513982549,-0.00406393315643,0.0270088147372,0.00969332874665,-0.012096644617,0.0326875362717,-0.999345400182
9228000000,217,9228000000,map,-0.00301152700558,-0.00433407491073,0.0264003612101,0.00970040044453,-0.0120531817497,0.0326429027591,-0.999347381083
9260000000,218,9260000000,map,-0.00359771773219,-0.00459306547418,0.0253730956465,0.00970020633853,-0.0119750367181,0.0326030739872,-0.999349614866
9296000000,219,9296000000,map,-0.00390566233546,-0.00484191859141,0.0246365647763,0.00968358426356,-0.0119348171824,0.0325146920459,-0.999353113055
9328000000,220,9328000000,map,-0.0041863238439,-0.00506048742682,0.0235324576497,0.00967107018923,-0.0119052278721,0.0324697213586,-0.999355093957
9360000000,221,9360000000,map,-0.00425967667252,-0.00533123547211,0.0222115460783,0.00965801948344,-0.0118460020011,0.0323581586505,-0.999359519376
9388000000,222,9388000000,map,-0.00411286111921,-0.00552569516003,0.0215385481715,0.00965004129905,-0.0118464187774,0.0323288665908,-0.999360488753
9428000000,223,9428000000,map,-0.00397075386718,-0.005708147306,0.0210174396634,0.00962116371078,-0.0118302308479,0.0322850760152,-0.999362385361
9460000000,224,9460000000,map,-0.00435073208064,-0.00591263361275,0.0198282971978,0.00963988497869,-0.0117732876568,0.0322063457022,-0.999365419935
9492000000,225,9492000000,map,-0.0050143590197,-0.00603380100802,0.0188855025917,0.00965053528975,-0.0117451661599,0.0321853565716,-0.999366347165
9528000000,226,9528000000,map,-0.00564340874553,-0.00613706046715,0.0175584051758,0.00967507767952,-0.011646936591,0.0320960895465,-0.999370140382
9560000000,227,9560000000,map,-0.00616584159434,-0.00627252552658,0.0160611383617,0.00967682833777,-0.0115845563741,0.0320333750359,-0.99937283778
9592000000,228,9592000000,map,-0.00634264573455,-0.00636921590194,0.0149567322806,0.00966939304101,-0.0115800166975,0.0319903852504,-0.999374355066
9624000000,229,9624000000,map,-0.00649531325325,-0.00644989311695,0.0136380400509,0.00967913670091,-0.0115564225295,0.0319073559589,-0.999377136758
9660000000,230,9660000000,map,-0.00680055702105,-0.00648956745863,0.0119635555893,0.00968716032488,-0.011528047246,0.0318251274574,-0.999380044891
9692000000,231,9692000000,map,-0.00708399899304,-0.00647627003491,0.0111224064603,0.00967439979026,-0.011494323758,0.0317882068181,-0.999381730765
9732000000,232,9732000000,map,-0.0073493658565,-0.00645615998656,0.0104267792776,0.00966016782027,-0.0114239907107,0.0317053882608,-0.999385313247
9760000000,233,9760000000,map,-0.00745613127947,-0.00642909994349,0.00966263655573,0.00963780990495,-0.01142332591,0.0316390912681,-0.999387631324
9792000000,234,9792000000,map,-0.0073503726162,-0.00641458015889,0.00931476522237,0.00963122791723,-0.0114358506033,0.0316029292721,-0.999388727142
9828000000,235,9828000000,map,-0.00724149029702,-0.00639994023368,0.00824689120054,0.00962538926162,-0.0114158927535,0.0315353678739,-0.999391129512
9860000000,236,9860000000,map,-0.00688578607515,-0.00637608394027,0.00700295250863,0.00963353726818,-0.0114198000627,0.0314367863952,-0.999394121938
9892000000,237,9892000000,map,-0.00649051740766,-0.00631794519722,0.0060592982918,0.00964757916577,-0.0114214881592,0.0313790873596,-0.999395765665
9928000000,238,9928000000,map,-0.00609790673479,-0.00623640604317,0.00501613691449,0.00965459175928,-0.0114399770432,0.031277724189,-0.999398673798
9960000000,239,9960000000,map,-0.00537523860112,-0.006128215231,0.00424535479397,0.00966417926182,-0.0114322426849,0.0311962543308,-0.999401160462
9988000000,240,9988000000,map,-0.00467919232324,-0.0060469340533,0.00365724950098,0.00969011579031,-0.01145888435,0.0311712612496,-0.99940145549
10028000000,241,10028000000,map,-0.0040031587705,-0.00595584185794,0.00276984972879,0.00970512945264,-0.0114360116175,0.0311197578007,-0.999403141364
10060000000,242,10060000000,map,-0.00319333281368,-0.00588387763128,0.00193201575894,0.00972067670066,-0.0114487791491,0.0310682964987,-0.999404447916
10092000000,243,10092000000,map,-0.00304022547789,-0.00593149894848,0.00106756971218,0.00972534339399,-0.0114427927326,0.0310291420764,-0.999405670175
10128000000,244,10128000000,map,-0.00286603020504,-0.00596166029572,0.000281500455458,0.00971282289885,-0.0113885605222,0.030939411436,-0.999409168363
10160000000,245,10160000000,map,-0.00239349831827,-0.00599801307544,6.25444517937e-05,0.00972429507346,-0.0113523455134,0.0308552020326,-0.999412118643
10192000000,246,10192000000,map,-0.00187550345436,-0.00602578092366,-0.00023216631962,0.00971087920474,-0.0113569223977,0.0308281437559,-0.999413045873
10228000000,247,10228000000,map,-0.00137715204619,-0.00604289583862,-0.000948871835135,0.00974187244955,-0.0113518942457,0.0307589807775,-0.999414942482
10260000000,248,10260000000,map,-0.000748393824324,-0.00603882782161,-0.00153978751041,0.00973601337907,-0.0113103473313,0.0306855188205,-0.999417682027
10292000000,249,10292000000,map,-0.000619968632236,-0.00599408335984,-0.00212783832103,0.00972234874516,-0.0113127310978,0.030661747998,-0.999418524964
10324000000,250,10324000000,map,-0.000480759597849,-0.00594719313085,-0.00282583525404,0.00970480602497,-0.0112682810722,0.0305888339501,-0.999421475243
10360000000,251,10360000000,map,-5.46473966097e-05,-0.00588795496151,-0.00340222008526,0.00972886496075,-0.0112589208498,0.0304881029821,-0.999424425522
10392000000,252,10392000000,map,0.000447177357273,-0.0058434586972,-0.00379286659881,0.00972978264252,-0.0112553321115,0.0304309518555,-0.99942619569
10428000000,253,10428000000,map,0.000923611689359,-0.00580626633018,-0.00441504782066,0.0097002968884,-0.0112649219189,0.0303264276712,-0.999429567438
10460000000,254,10460000000,map,0.00178659975063,-0.00575507991016,-0.0046963263303,0.00968526733869,-0.011268253084,0.0301904619379,-0.999433782123
10492000000,255,10492000000,map,0.00172625703271,-0.00565374642611,-0.00518354494125,0.00969695444575,-0.0112605040731,0.0301461234533,-0.999435046528
10524000000,256,10524000000,map,0.00167595059611,-0.00554229551926,-0.00582613470033,0.0097080836833,-0.0112074110624,0.0300364152066,-0.999438881892
10560000000,257,10560000000,map,0.0018781835679,-0.00537799485028,-0.00670241191983,0.00966475359495,-0.0111470019515,0.0299261169041,-0.999443223017
10592000000,258,10592000000,map,0.00222322507761,-0.005249759648,-0.00786045286804,0.00964682109872,-0.0111276265843,0.029906097151,-0.999444276688
10628000000,259,10628000000,map,0.00254423683509,-0.00512950029224,-0.00894642435014,0.00965593354372,-0.0110750804948,0.0298239529433,-0.999447184821
10660000000,260,10660000000,map,0.00320082670078,-0.00496804434806,-0.0103098331019,0.00963192671527,-0.0110613777476,0.0297585831812,-0.999449502897
10692000000,261,10692000000,map,0.00288354605436,-0.00464209867641,-0.0114397164434,0.00962229821833,-0.0110583990685,0.0297129381443,-0.999450978037
10728000000,262,10728000000,map,0.00256916647777,-0.00432190578431,-0.0126220937818,0.00962875582346,-0.0110291992873,0.0296109427709,-0.999454349785
10760000000,263,10760000000,map,0.00241165957414,-0.00389686087146,-0.0140179255977,0.0096661414775,-0.0109941751739,0.0295053649154,-0.999457426505
10792000000,264,10792000000,map,0.00247167376801,-0.00357019016519,-0.0145857604221,0.00966710336407,-0.0109792389729,0.0294408380903,-0.9994594917
10824000000,265,10824000000,map,0.0026271995157,-0.00313965044916,-0.0153805650771,0.00965452693381,-0.0109767228801,0.0293084548391,-0.999463495651
10860000000,266,10860000000,map,0.00277853268199,-0.00282422453165,-0.0158325452358,0.00965775767084,-0.0109124437501,0.029218344877,-0.999466867399
10888000000,267,10888000000,map,0.0026557741221,-0.00262562907301,-0.0158210042864,0.0096998662003,-0.0108985788775,0.0291646076452,-0.999468173951
10928000000,268,10928000000,map,0.00231236824766,-0.00245015369728,-0.0164131801575,0.00972532590141,-0.0108765765351,0.0291108704133,-0.999469733385
10960000000,269,10960000000,map,0.00214765244164,-0.00231723673642,-0.0169910565019,0.0097097315263,-0.0108434056894,0.0290064726696,-0.999473231573
10988000000,270,10988000000,map,0.00218344223686,-0.00215258519165,-0.0174446925521,0.00971577939326,-0.0108257068529,0.0289650844643,-0.999474580272
11028000000,271,11028000000,map,0.00229219067842,-0.00192273687571,-0.0178179442883,0.00973545357508,-0.010752424514,0.0288514144139,-0.999478499929
11060000000,272,11060000000,map,0.00242986995727,-0.00174401851837,-0.0177272241563,0.00973161528957,-0.0107176128223,0.0287544766623,-0.99948170309
11092000000,273,11092000000,map,0.00213843444362,-0.00166242849082,-0.0178101025522,0.00974065241354,-0.0106944090889,0.0287255217774,-0.999482672467
11128000000,274,11128000000,map,0.00145462586079,-0.00162109755911,-0.0184410884976,0.00971471880733,-0.0106194707987,0.0286948388717,-0.999484611222
11164000000,275,11164000000,map,0.00102216959931,-0.00156462949235,-0.0192887950689,0.00973113920305,-0.0105684083276,0.0286400901155,-0.999486592124
11192000000,276,11192000000,map,0.000811219739262,-0.00145577581134,-0.020118182525,0.00971609109061,-0.0105474524947,0.0285952458686,-0.999488277998
11224000000,277,11224000000,map,0.000643220497295,-0.00131202652119,-0.0211692266166,0.00970958187206,-0.0105412491701,0.0285531833138,-0.999489542403
11260000000,278,11260000000,map,0.000578943756409,-0.00118891464081,-0.0216902885586,0.00970688192189,-0.0105249975264,0.028547577783,-0.999489921725
11292000000,279,11292000000,map,0.000282978173345,-0.00121181528084,-0.0221718586981,0.00972073135985,-0.0105210881593,0.028518370017,-0.999490638221
11324000000,280,11324000000,map,-0.000195276501472,-0.00133626826573,-0.0229759495705,0.00970217353446,-0.0104871257431,0.0284732307422,-0.999492450536
11360000000,281,11360000000,map,-0.0006002105074,-0.00141625257675,-0.0241860318929,0.00970602708996,-0.0104743449582,0.0284030562394,-0.999494600025
11392000000,282,11392000000,map,-0.000745766679756,-0.00141766422894,-0.0252043139189,0.00968748325864,-0.0104527781606,0.0283792011232,-0.999495695843
11424000000,283,11424000000,map,-0.000865426496603,-0.00141511659604,-0.0261150188744,0.00966668140168,-0.010447426581,0.0283390773234,-0.999497044542
11460000000,284,11460000000,map,-0.000891636766028,-0.00141634955071,-0.0269666370004,0.00963234048701,-0.0104098122886,0.0282905663008,-0.999499194032
11492000000,285,11492000000,map,-0.000965446524788,-0.00137332582381,-0.0278839096427,0.0096261076102,-0.010403921361,0.0282640137862,-0.999500036969
11528000000,286,11528000000,map,-0.0014416242484,-0.00135600450449,-0.0287787113339,0.00965365567942,-0.0103577707265,0.0281763904881,-0.99950269222
11560000000,287,11560000000,map,-0.00186320301145,-0.0012688729912,-0.0296962894499,0.00966885708867,-0.0103185377111,0.0281092505585,-0.999504841709
11592000000,288,11592000000,map,-0.00202107266523,-0.0011689637322,-0.0303632207215,0.00965105167096,-0.0103069944342,0.0280633104936,-0.99950644329
11628000000,289,11628000000,map,-0.0021336353384,-0.00103197654244,-0.0310030225664,0.00964640664785,-0.0102280701593,0.0279866453761,-0.999509435716
11660000000,290,11660000000,map,-0.00216939183883,-0.000920313643292,-0.0314885303378,0.009656345772,-0.0102013605407,0.0279289463405,-0.99951124803
11692000000,291,11692000000,map,-0.00221385178156,-0.000926419044845,-0.0321299694479,0.00964255949258,-0.0101750994115,0.027881236108,-0.999512933904
11728000000,292,11728000000,map,-0.00259926565923,-0.0013264848385,-0.0326135270298,0.00962848719904,-0.0101374285459,0.0277834975663,-0.999516179212
11756000000,293,11756000000,map,-0.00281252572313,-0.00159040954895,-0.0328232832253,0.00959899263689,-0.010117162168,0.0276885828635,-0.999519298078
11792000000,294,11792000000,map,-0.00288404989988,-0.00177925359458,-0.0330639667809,0.00958006275443,-0.0100981322279,0.0276226230456,-0.999521531861
11828000000,295,11828000000,map,-0.00288095045835,-0.00200986093841,-0.0334303230047,0.00957044880721,-0.0100388953468,0.0275427547676,-0.999524439994
11860000000,296,11860000000,map,-0.00281737651676,-0.00216857809573,-0.0338010527194,0.00953276156037,-0.0100245259674,0.0274638137204,-0.999527095245
11892000000,297,11892000000,map,-0.00262190820649,-0.00226720399223,-0.0341837629676,0.00952645856915,-0.0100109672563,0.027424406417,-0.999528401798
11928000000,298,11928000000,map,-0.00325350416824,-0.00256984052248,-0.0349559299648,0.00950567947313,-0.0099938523842,0.0273538525926,-0.999530677728
11960000000,299,11960000000,map,-0.00364021142013,-0.00276172277518,-0.0355727635324,0.00949743198519,-0.00997264844465,0.0272398453674,-0.999534091622
11992000000,300,11992000000,map,-0.00386490486562,-0.00288334838115,-0.0360552705824,0.00947418310031,-0.00996407514182,0.0271824835066,-0.999535903937
12024000000,301,12024000000,map,-0.00406860839576,-0.00300240796059,-0.0363250933588,0.00947248296476,-0.00995188920787,0.0270666639668,-0.999539275685
12060000000,302,12060000000,map,-0.00417593121529,-0.00310035864823,-0.0361215211451,0.00944728793681,-0.00994814252179,0.0269454074837,-0.999542773873
12092000000,303,12092000000,map,-0.00414198078215,-0.00312854256481,-0.0361536443233,0.00944679618928,-0.00994652429272,0.026899678153,-0.999543996132
12128000000,304,12128000000,map,-0.00444832351059,-0.00332870404236,-0.0366483330727,0.00944389445696,-0.0099487582609,0.026779770369,-0.999547241439
12160000000,305,12160000000,map,-0.00469080917537,-0.00351095339283,-0.0367988832295,0.00943187774837,-0.00992974698646,0.0266765948839,-0.999550360306
12192000000,306,12192000000,map,-0.00475372187793,-0.00359937106259,-0.0369583927095,0.00942579339392,-0.00993020341954,0.0266453219223,-0.999551203243
12228000000,307,12228000000,map,-0.00479593500495,-0.00370280258358,-0.0371384993196,0.00940157280604,-0.00991308716865,0.0265864849218,-0.999553141998
12260000000,308,12260000000,map,-0.00470422394574,-0.00380146573298,-0.0372435972095,0.00939588485423,-0.00990421206721,0.0264790526049,-0.999556218718
12292000000,309,12292000000,map,-0.00452157855034,-0.00386354187503,-0.0369931645691,0.00938788578162,-0.00991667343741,0.0264560825725,-0.999556682333
12328000000,310,12328000000,map,-0.00469433050603,-0.00394454086199,-0.0370436944067,0.00942162972569,-0.00990244085002,0.026409763186,-0.999557820298
12360000000,311,12360000000,map,-0.00476200506091,-0.00400933017954,-0.0373266749084,0.00943947482071,-0.00985687761666,0.0263795860424,-0.999558831822
12392000000,312,12392000000,map,-0.00470471009612,-0.00404633348808,-0.0375448837876,0.00945374430716,-0.00983453569163,0.0263636545337,-0.999559337585
12428000000,313,12428000000,map,-0.00462359795347,-0.00409564096481,-0.0374916754663,0.00944938157327,-0.00983419773482,0.0263125725533,-0.999560770577
12460000000,314,12460000000,map,-0.00436030421406,-0.00412873504683,-0.0371773280203,0.00943965421235,-0.00979871733236,0.0262557586015,-0.999562709332
12492000000,315,12492000000,map,-0.00406934553757,-0.00414317380637,-0.0369019210339,0.00945367489246,-0.00978976217661,0.0262530612032,-0.999562709332
12524000000,316,12524000000,map,-0.00404941802844,-0.00429167412221,-0.0367270074785,0.00946986449919,-0.00980085343466,0.0262222518569,-0.999563257241
12556000000,317,12556000000,map,-0.00406029215083,-0.00453918147832,-0.0364109650254,0.00948418295461,-0.00977744311377,0.0261884922313,-0.999564226619
12588000000,318,12588000000,map,-0.00396168930456,-0.00468311039731,-0.0359195359051,0.00947261860435,-0.0097702679215,0.026159073731,-0.99956515385
12624000000,319,12624000000,map,-0.00377421360463,-0.00484059844166,-0.03544427827,0.00946167047683,-0.00976318246621,0.0261680088629,-0.99956515385
12656000000,320,12656000000,map,-0.00360178668052,-0.00494593847543,-0.0352012962103,0.00943284257781,-0.00972951449143,0.0260911751581,-0.999567724807
12692000000,321,12692000000,map,-0.00331389112398,-0.00503443088382,-0.0348364822567,0.00942867581236,-0.00974253604633,0.0260752436493,-0.999568061982
12728000000,322,12728000000,map,-0.00321070384234,-0.00520745664835,-0.0345870703459,0.00941543019798,-0.00974502499472,0.0260384073037,-0.9995691578
12756000000,323,12756000000,map,-0.00333397695795,-0.0053725913167,-0.0340598933399,0.00937973985359,-0.00969240715477,0.0259861873584,-0.99957130729
12788000000,324,12788000000,map,-0.0033391835168,-0.00550973182544,-0.0337913669646,0.00937827157716,-0.00968772989385,0.0259666312207,-0.999571897345
12832000000,325,12832000000,map,-0.00332644628361,-0.00562483863905,-0.033600423485,0.00938164790398,-0.00966262159826,0.0258992384099,-0.999573878247
12860000000,326,12860000000,map,-0.00316417240538,-0.00574511894956,-0.0332000739872,0.00940348281149,-0.00965295132491,0.0258618963022,-0.999574721184
12892000000,327,12892000000,map,-0.00293453573249,-0.00581304356456,-0.0327472649515,0.00941127309461,-0.00963709255447,0.0258454590312,-0.999575226946
12928000000,328,12928000000,map,-0.00289113656618,-0.00585842411965,-0.032159127295,0.00939570512302,-0.009607990135,0.0257839246324,-0.999577249995
12960000000,329,12960000000,map,-0.00315695605241,-0.00587768107653,-0.0316785499454,0.00937844251062,-0.0096214397747,0.0257539160763,-0.999578008638
12992000000,330,12992000000,map,-0.00323692103848,-0.00588071485981,-0.0310710947961,0.00937293264365,-0.00958712086983,0.0257247083103,-0.999579146603
13028000000,331,13028000000,map,-0.00330619723536,-0.00589037267491,-0.0305637791753,0.00937293950692,-0.00954930038091,0.0256591699608,-0.999581211799
13060000000,332,13060000000,map,-0.00326551264152,-0.00591903179884,-0.0304780490696,0.00938312504504,-0.00951917411509,0.0255931258492,-0.999583108407
13092000000,333,13092000000,map,-0.00313302385621,-0.0059381974861,-0.030479779467,0.00939097506536,-0.0094989935074,0.0255457527915,-0.999584457106
13128000000,334,13128000000,map,-0.00299921422265,-0.00589916436002,-0.0306752957404,0.00939087284176,-0.00949542500391,0.025456865088,-0.999586775183
13160000000,335,13160000000,map,-0.00293336715549,-0.0058260881342,-0.0312351156026,0.00942287812542,-0.00947310559287,0.0253574828192,-0.9995892197
13192000000,336,13192000000,map,-0.00274753756821,-0.00574316037819,-0.0318545177579,0.00942307489389,-0.00947013503493,0.0253164317887,-0.999590231225
13228000000,337,13228000000,map,-0.002550088102,-0.00566802220419,-0.0324169099331,0.00943785225836,-0.00941605178296,0.0252587749,-0.999592085686
13260000000,338,13260000000,map,-0.00216728332452,-0.00557515164837,-0.033050429076,0.00946489282,-0.00941411888923,0.0251679062946,-0.999594108735
13292000000,339,13292000000,map,-0.00178330973722,-0.00551232649013,-0.033670719713,0.00947840685815,-0.0093953141045,0.0251583811068,-0.999594445909
13328000000,340,13328000000,map,-0.00147760321852,-0.00548458797857,-0.034072149545,0.00948758700718,-0.0094042729054,0.0251136211537,-0.99959537314
13360000000,341,13360000000,map,-0.00112049921881,-0.00553089519963,-0.0346216149628,0.00949536367439,-0.0094269407508,0.0250873636671,-0.999595752462
13392000000,342,13392000000,map,-0.000749724567868,-0.0055523570627,-0.0349480956793,0.00949215918909,-0.00942450677802,0.0250845819751,-0.999595836755
13424000000,343,13424000000,map,-0.000396480056224,-0.00555778620765,-0.0350329130888,0.00947013151069,-0.00940265300167,0.0250653630122,-0.999596763986
13460000000,344,13460000000,map,0.000200129012228,-0.00553583260626,-0.0349354892969,0.00944462182451,-0.00941404744487,0.0250373775047,-0.999597606923
13492000000,345,13492000000,map,0.000744243618101,-0.00551068224013,-0.0345302447677,0.00943621335459,-0.00940840916043,0.0249999932501,-0.999598660594
13528000000,346,13528000000,map,0.00125028053299,-0.00547886872664,-0.0342001989484,0.00943099310315,-0.00941324613898,0.0249653063938,-0.999599545678
13560000000,347,13560000000,map,0.00140647625085,-0.00555154308677,-0.0336692146957,0.00942184204841,-0.00939766884744,0.0249679194984,-0.999599714265
13592000000,348,13592000000,map,0.00161490752362,-0.00559057062492,-0.0332531966269,0.00943871775948,-0.00939082935467,0.0249316732087,-0.999600557202
13624000000,349,13624000000,map,0.00191870960407,-0.00561814103276,-0.0328320115805,0.00946784799989,-0.0093636602598,0.024882909305,-0.999601695167
13660000000,350,13660000000,map,0.00218054535799,-0.00562505191192,-0.0323111899197,0.00946392325984,-0.00936819217789,0.0248491496793,-0.999602580251
13692000000,351,13692000000,map,0.00255854381248,-0.00560161750764,-0.0316288694739,0.00944732912414,-0.00936195589259,0.0248278655208,-0.999603296748
13724000000,352,13724000000,map,0.00290781678632,-0.00556744029745,-0.0310284998268,0.00947514600042,-0.00934794869464,0.0247978991115,-0.99960392895
13760000000,353,13760000000,map,0.00254443241283,-0.00539499893785,-0.0308707486838,0.00946694076737,-0.00933856420388,0.0247723581213,-0.999604687594
13792000000,354,13792000000,map,0.00240906164981,-0.00524953566492,-0.0307463407516,0.00947377128362,-0.00932533790338,0.0247648138354,-0.999604982621
13828000000,355,13828000000,map,0.00227718567476,-0.00511557143182,-0.0305976178497,0.00946937586946,-0.00928383408242,0.024772990324,-0.999605151209
13860000000,356,13860000000,map,0.00225223274902,-0.00491867959499,-0.0303202606738,0.0094687207926,-0.00926269528733,0.0247768678341,-0.999605319796
13888000000,357,13888000000,map,0.00235854461789,-0.00474709644914,-0.0298177078366,0.00948153270397,-0.00924223899131,0.0247707143942,-0.999605488384
13928000000,358,13928000000,map,0.00246606045403,-0.00457393936813,-0.029538853094,0.00947854707926,-0.00920451734581,0.024743234649,-0.999606584202
13956000000,359,13956000000,map,0.0019214701606,-0.00399890961125,-0.0295310355723,0.00947786551656,-0.00917236519642,0.0247074941215,-0.999607764313
13992000000,360,13992000000,map,0.00145486975089,-0.00349375093356,-0.0296185687184,0.00947390791102,-0.00915714730298,0.0247043331078,-0.999607975048
14028000000,361,14028000000,map,0.000931194168516,-0.00283718947321,-0.0300765465945,0.00946323361454,-0.00912258617721,0.0246745352859,-0.999609113013
14060000000,362,14060000000,map,0.000607441470493,-0.00237928843126,-0.0303229093552,0.00951092233117,-0.00908838840337,0.0246302389481,-0.99961008239
14092000000,363,14092000000,map,0.00044099369552,-0.00191319570877,-0.0306350588799,0.00951519980413,-0.0090498547622,0.0246317983815,-0.999610377418
14128000000,364,14128000000,map,0.000276411534287,-0.00147807772737,-0.0315553769469,0.00952777283877,-0.00897804828324,0.0245748579892,-0.999612274026
14160000000,365,14160000000,map,-0.000160542869708,-0.00103525735904,-0.0331476964056,0.00956424430955,-0.00893996601259,0.0245446808457,-0.99961303267
14192000000,366,14192000000,map,-0.00045748744742,-0.000712607172318,-0.0345490351319,0.00955203106658,-0.00893703931732,0.0245283278684,-0.999613622725
14228000000,367,14228000000,map,-0.000750320381485,-0.00041948290891,-0.0360550582409,0.00954265160237,-0.00888499765236,0.0244688165183,-0.999615645774
14260000000,368,14260000000,map,-0.000980727141723,-1.79136422958e-05,-0.0382460914552,0.00956782473372,-0.0088756651506,0.0244045004275,-0.999616994473
14292000000,369,14292000000,map,-0.00103111891076,0.000308183545712,-0.0397474467754,0.0095453259722,-0.00884723998241,0.0243584339221,-0.9996186382
14328000000,370,14328000000,map,-0.00107183761429,0.000596984929871,-0.0412672385573,0.00955665935854,-0.00884169520229,0.0242960565863,-0.999620071193
14360000000,371,14360000000,map,-0.00152822094969,0.000847439921927,-0.043389428407,0.0095496097219,-0.00877712548951,0.0242489364097,-0.999621841361
14392000000,372,14392000000,map,-0.00187141646165,0.00101837562397,-0.0449788868427,0.00954791656282,-0.00875171163956,0.0242219202798,-0.999622726445
14428000000,373,14428000000,map,-0.00218645832501,0.00117678008974,-0.0462247133255,0.00953375546867,-0.00871827445376,0.0241527994482,-0.999624833787
14460000000,374,14460000000,map,-0.00241487449966,0.00144634651951,-0.0476293861866,0.00953513565448,-0.00870840958051,0.0240842265257,-0.999626561808
14484000000,375,14484000000,map,-0.00247594923712,0.001666279044,-0.0485145971179,0.00952107338317,-0.00871333915658,0.0240587276823,-0.999627278304
14524000000,376,14524000000,map,-0.00254828552715,0.00184353429358,-0.0492817908525,0.00951686264959,-0.00867517913652,0.0239989213043,-0.999629090619
14556000000,377,14556000000,map,-0.00269745010883,0.00193135894369,-0.0500187128782,0.00949486483464,-0.00864959052532,0.0239243213824,-0.999631282255
14596000000,378,14596000000,map,-0.00284031475894,0.0019035624573,-0.0503692440689,0.0095006460734,-0.00861946026193,0.0238875271837,-0.999632335926
14628000000,379,14628000000,map,-0.00296323793009,0.00189254025463,-0.0506675206125,0.0095218885378,-0.00861645684622,0.0237958577882,-0.999634401122
14656000000,380,14656000000,map,-0.00301085133106,0.00188578036614,-0.0507904142141,0.00949306766668,-0.00860588885323,0.0237158209228,-0.999636634905
14692000000,381,14692000000,map,-0.00294014415704,0.00191143760458,-0.0507749058306,0.00947479066936,-0.00860753365046,0.0236785209619,-0.999637688576
14728000000,382,14728000000,map,-0.00288094207644,0.00193054578267,-0.0505835898221,0.00949144406635,-0.00862854504805,0.0235874837691,-0.999639543037
14760000000,383,14760000000,map,-0.00293203745969,0.00213534501381,-0.0503998026252,0.0094596914374,-0.00860714391559,0.0235351373833,-0.999641228911
14792000000,384,14792000000,map,-0.00305322720669,0.0024099140428,-0.0503175072372,0.00946335985958,-0.00859836387093,0.0234839711092,-0.999642493317
14828000000,385,14828000000,map,-0.00316184060648,0.00276959338225,-0.0502263307571,0.00947550370842,-0.00858882258999,0.0234049879151,-0.999644347778
14860000000,386,14860000000,map,-0.00319302687421,0.00303108082153,-0.0500587970018,0.00948492735685,-0.0085755807005,0.0233695845623,-0.999645190715
14888000000,387,14888000000,map,-0.00311380322091,0.00332633103244,-0.0499725863338,0.00947260726504,-0.00858194096452,0.0233367521673,-0.999645991505
14928000000,388,14928000000,map,-0.00296216481365,0.00371434306726,-0.0498747676611,0.009485740577,-0.00853152349669,0.0232932144728,-0.999647298057
14960000000,389,14960000000,map,-0.00289114168845,0.00412018829957,-0.0495442077518,0.00948677692026,-0.0085051292386,0.0232304578154,-0.999649026078
14992000000,390,14992000000,map,-0.00283739855513,0.00478976545855,-0.0492056123912,0.00947458619129,-0.00848129494882,0.0232146106003,-0.999649700428
15028000000,391,15028000000,map,-0.00278340582736,0.00541653018445,-0.0487579964101,0.00946577918747,-0.0084459676168,0.0231268608617,-0.999652060651
15060000000,392,15060000000,map,-0.00257601565681,0.00626645796001,-0.04833413288,0.00946963883451,-0.00845722815166,0.0230430307801,-0.999653872966
15092000000,393,15092000000,map,-0.00232495320961,0.00691141327843,-0.0478670336306,0.00947575309099,-0.00844022683737,0.0229982708269,-0.999654968784
15128000000,394,15128000000,map,-0.00208462006412,0.00749743916094,-0.0472099073231,0.00951356325928,-0.00841231327594,0.0229319316874,-0.999656401777
15160000000,395,15160000000,map,-0.00182299793232,0.00818437058479,-0.0469526946545,0.00948801325526,-0.00840591070044,0.0228679527713,-0.999658171944
15192000000,396,15192000000,map,-0.00188921263907,0.00848446879536,-0.0469219684601,0.00949040648832,-0.00839628269742,0.0228438869208,-0.999658804147
15228000000,397,15228000000,map,-0.00194862065837,0.00875341426581,-0.0466376431286,0.00950261940201,-0.00834991239718,0.022794322227,-0.999660152846
15260000000,398,15260000000,map,-0.00187928020023,0.0091504836455,-0.046325288713,0.00949524818986,-0.00831527900644,0.0227513745884,-0.999661459398
15292000000,399,15292000000,map,-0.00170924584381,0.00947723072022,-0.0460608303547,0.00951152967384,-0.0082906945933,0.0227233047873,-0.999662218042
15328000000,400,15328000000,map,-0.00144124077633,0.00990233104676,-0.0454518049955,0.009501094748,-0.00825335474927,0.022667460213,-0.999663861769
15360000000,401,15360000000,map,-0.00136197230313,0.0101853869855,-0.0446419939399,0.00949015883442,-0.00821267394431,0.0225784882158,-0.999666348433
15392000000,402,15392000000,map,-0.00143428007141,0.0104797175154,-0.0437088534236,0.00950300934268,-0.00819613558681,0.022536678542,-0.999667275664
15428000000,403,15428000000,map,-0.00152395060286,0.0108645735309,-0.0423672497272,0.00948765492473,-0.00819097634333,0.0224780522758,-0.999668835097
15456000000,404,15456000000,map,-0.00157405505888,0.0111444694921,-0.0414633601904,0.00951036252718,-0.00814833328154,0.0223998698718,-0.999670731705
15492000000,405,15492000000,map,-0.00150793651119,0.0114884572104,-0.0406991764903,0.00951512561497,-0.00812007595988,0.0223813674053,-0.999671279614
15528000000,406,15528000000,map,-0.00144885154441,0.0117891123518,-0.040103521198,0.00948594122728,-0.00809467754457,0.0223453318498,-0.999672586166
15560000000,407,15560000000,map,-0.00127624068409,0.0122442385182,-0.0395810194314,0.00948958997545,-0.00808197907778,0.0222974108831,-0.999673724131
